City,Country,Lat,Lng,Date,Max Temp,Cloudiness,Wind Speed,Humidity
mataura,NZ,-46.19,168.86,1587869511,59.0,90,8.99,56
paamiut,GL,61.99,-49.67,1587869512,31.01,2,11.21,92
chokurdakh,RU,70.63,147.92,1587869512,28.98,40,13.62,96
vila velha,BR,-20.33,-40.29,1587869512,73.0,20,3.36,100
cape town,ZA,-33.93,18.42,1587869500,57.0,0,5.82,93
hithadhoo,MV,-0.6,73.08,1587869512,84.63,93,6.85,70
jalu,LY,29.03,21.55,1587869512,65.46,63,6.8,41
new norfolk,AU,-42.78,147.06,1587869512,57.99,17,5.99,45
sola,VU,-13.88,167.55,1587869512,81.01,100,21.03,84
tuatapere,NZ,-46.13,167.68,1587869513,59.0,100,8.99,56
carutapera,BR,-1.2,-46.02,1587869513,78.03,93,4.54,83
vardo,NO,70.37,31.11,1587869513,34.34,100,26.51,87
katsuura,JP,35.13,140.3,1587869513,71.01,75,26.4,49
punta arenas,CL,-53.15,-70.92,1587869450,35.6,0,6.93,80
puerto madryn,AR,-42.77,-65.04,1587869477,51.93,57,11.63,84
bluff,NZ,-46.6,168.33,1587869513,59.0,100,8.99,56
albany,US,42.6,-73.97,1587869513,55.4,75,2.08,37
comodoro rivadavia,AR,-45.87,-67.5,1587869348,50.0,40,6.93,76
savannakhet,LA,16.57,104.75,1587869514,75.2,40,4.7,69
kapaa,US,22.08,-159.32,1587869305,80.6,40,10.29,65
ushuaia,AR,-54.8,-68.3,1587869440,35.6,24,3.36,59
busselton,AU,-33.65,115.33,1587869267,70.0,9,2.33,51
jamestown,US,42.1,-79.24,1587869444,54.0,90,6.93,76
vaini,TO,-21.2,-175.2,1587869514,75.2,90,6.93,94
port alfred,ZA,-33.59,26.89,1587869514,60.01,90,18.86,92
longyearbyen,SJ,78.22,15.64,1587869513,15.8,0,6.93,66
butaritari,KI,3.07,172.79,1587869515,83.32,96,17.83,77
stratford,US,41.18,-73.13,1587869400,48.99,1,3.36,61
khatanga,RU,71.97,102.5,1587869515,22.3,100,14.58,94
antalaha,MG,-14.9,50.28,1587869515,76.68,11,6.58,83
bredasdorp,ZA,-34.53,20.04,1587869515,60.8,0,6.93,82
shenjiamen,CN,29.96,122.3,1587869515,61.79,100,5.88,73
santa fe,AR,-31.63,-60.7,1587869362,66.99,87,1.01,97
arraial do cabo,BR,-22.97,-42.03,1587869516,75.16,0,16.51,81
hermanus,ZA,-34.42,19.23,1587869516,64.0,0,7.99,68
narsaq,GL,60.92,-46.05,1587868935,32.0,82,1.12,96
rocha,UY,-34.48,-54.33,1587868918,62.15,100,8.57,88
lamu,KE,-2.27,40.9,1587869516,80.06,100,9.91,83
qaanaaq,GL,77.48,-69.36,1587869516,27.88,100,3.47,88
tasiilaq,GL,65.61,-37.64,1587869517,30.2,59,21.92,74
tiksi,RU,71.69,128.87,1587869517,35.38,100,18.03,94
yatou,CN,37.15,122.38,1587869517,54.37,33,4.85,43
tsogni,GA,-2.79,10.1,1587869517,75.67,100,5.7,91
miraflores,MX,19.22,-98.81,1587869517,66.2,90,10.29,48
muros,ES,42.78,-9.06,1587868944,54.0,35,6.73,87
isangel,VU,-19.55,169.27,1587869517,76.77,92,16.67,72
yellowknife,CA,62.46,-114.35,1587869452,14.0,75,16.11,47
greenville,US,35.61,-77.37,1587869349,57.99,90,10.29,87
rikitea,PF,-23.12,-134.97,1587869455,76.1,0,16.35,76
barrow,US,71.29,-156.79,1587869518,12.2,90,12.75,85
hilo,US,19.73,-155.09,1587869467,82.4,75,11.41,51
hailey,US,43.52,-114.32,1587869335,59.0,5,3.36,30
puerto ayora,EC,-0.74,-90.35,1587869518,79.0,31,5.01,86
alexandria,EG,31.22,29.96,1587869256,62.6,40,10.29,72
nikolskoye,RU,59.7,30.79,1587869519,32.0,99,4.47,94
gweta,BW,-20.18,25.23,1587869519,69.06,28,4.7,32
pindwara,IN,24.8,73.07,1587869519,85.28,1,7.9,37
cherskiy,RU,68.75,161.3,1587868922,23.25,16,3.62,92
weihe,CN,33.0,105.32,1587869519,73.78,5,1.66,13
hobart,AU,-42.88,147.33,1587869519,59.0,20,23.04,30
kaitangata,NZ,-46.28,169.85,1587869519,57.0,82,1.99,68
tuktoyaktuk,CA,69.45,-133.04,1587869467,-0.4,20,10.29,70
half moon bay,US,37.46,-122.43,1587869520,70.0,1,11.41,87
nancha,CN,47.13,129.27,1587869520,48.99,96,5.19,46
santa barbara,US,34.42,-119.7,1587869258,77.0,1,3.36,64
ponta do sol,PT,32.67,-17.1,1587869470,62.6,20,5.82,67
bundaberg,AU,-24.85,152.35,1587869520,84.99,0,10.29,36
mazagao,BR,-0.12,-51.29,1587869520,82.4,40,4.7,94
luderitz,NA,-26.65,15.16,1587869520,53.6,0,1.12,93
esperance,AU,-33.87,121.9,1587869521,64.4,75,2.24,63
nanortalik,GL,60.14,-45.24,1587869521,32.79,32,13.73,91
olafsvik,IS,64.89,-23.71,1587868930,38.71,13,11.59,80
chifeng,CN,42.27,118.96,1587869521,52.66,36,12.5,30
susanville,US,40.42,-120.65,1587869466,64.0,100,11.99,43
lang son,VN,21.83,106.73,1587869521,69.62,93,6.42,52
touros,BR,-5.2,-35.46,1587869522,77.0,75,2.24,94
pisco,PE,-13.7,-76.22,1587869235,68.0,0,13.87,82
margate,GB,51.38,1.39,1587869446,45.0,0,4.0,84
lasa,IT,46.62,10.7,1587869523,51.01,90,3.36,86
nakamura,JP,32.98,132.93,1587869523,69.46,61,8.72,46
north platte,US,41.12,-100.77,1587869467,54.0,1,2.37,39
lavrentiya,RU,65.58,-171.0,1587869523,27.99,0,0.78,91
aswan,EG,24.09,32.91,1587869524,67.84,0,8.16,36
halmaj,HU,48.25,21.0,1587869524,42.8,41,1.12,60
oyama,JP,36.3,139.8,1587869524,75.0,75,16.11,35
sao jose da coroa grande,BR,-8.9,-35.15,1587869524,78.93,3,7.47,82
okhotsk,RU,59.38,143.3,1587869524,38.75,0,4.45,72
atikokan,CA,48.76,-91.62,1587869524,32.13,68,5.64,82
castro,BR,-24.79,-50.01,1587869525,59.09,0,1.92,68
bubaque,GW,11.28,-15.83,1587869525,77.85,23,13.02,68
port elizabeth,ZA,-33.92,25.57,1587869463,60.8,20,6.93,93
port lincoln,AU,-34.73,135.87,1587868933,62.33,22,11.32,62
wau,SS,7.7,28.0,1587869525,80.42,1,3.91,35
orel-izumrud,RU,43.46,39.92,1587869525,48.2,90,8.95,87
kavieng,PG,-2.57,150.8,1587868954,85.26,89,11.59,72
puerto cabezas,NI,14.04,-83.39,1587869526,78.44,18,6.93,88
victoria,HK,22.29,114.16,1587869526,78.01,20,5.82,64
tarko-sale,RU,64.92,77.78,1587869526,37.0,100,1.99,70
sorland,NO,67.67,12.69,1587869526,38.08,94,15.55,74
souillac,MU,-20.52,57.52,1587869526,71.6,20,4.7,100
torbay,CA,47.67,-52.73,1587869526,37.0,5,11.41,87
kharp,RU,66.8,65.81,1587869526,19.94,66,2.95,94
garissa,KE,-0.45,39.64,1587869527,75.92,97,7.25,82
zhigansk,RU,66.77,123.37,1587868931,36.52,100,26.02,85
kholm,RU,59.27,32.85,1587869527,31.62,98,7.14,92
taltal,CL,-25.4,-70.48,1587868943,63.84,0,3.18,65
weihai,CN,37.5,122.11,1587869527,54.7,8,8.08,44
sackville,CA,45.92,-64.38,1587869527,41.0,20,6.93,25
vila franca do campo,PT,37.72,-25.43,1587869527,57.2,40,10.29,62
bambous virieux,MU,-20.34,57.76,1587869528,75.0,20,4.7,100
kuopio,FI,62.89,27.68,1587869528,32.0,0,9.17,96
kangaatsiaq,GL,68.31,-53.46,1587868956,34.02,100,21.34,90
paredon,MX,16.03,-93.87,1587869528,83.97,66,0.27,67
pedernales,DO,18.04,-71.74,1587869528,78.58,2,6.67,69
lakes entrance,AU,-37.88,147.98,1587869528,59.0,26,5.01,91
la palma,US,33.85,-118.05,1587869528,81.0,20,5.82,41
upata,VE,8.01,-62.4,1587869529,78.01,44,5.01,80
lata,PT,40.16,-8.33,1587869529,55.0,24,0.31,91
nelson bay,AU,-32.72,152.15,1587869529,82.4,57,26.4,28
meadow lake,US,34.8,-106.54,1587869529,71.6,40,11.41,7
san patricio,MX,19.22,-104.7,1587869529,73.06,31,3.44,67
sitka,US,57.05,-135.33,1587868703,50.0,90,11.41,61
lobatse,BW,-25.22,25.67,1587869531,53.6,82,4.7,76
ketchikan,US,55.34,-131.65,1587868933,46.4,90,23.04,93
kupang,ID,-10.17,123.58,1587869531,91.4,20,13.87,49
jiayuguan,CN,39.82,98.3,1587869531,65.41,0,4.43,8
chervonohryhorivka,UA,47.62,34.54,1587869531,48.0,85,4.47,70
grand gaube,MU,-20.01,57.66,1587869531,75.0,0,1.01,92
dingle,PH,11.0,122.67,1587869532,87.91,31,14.23,62
dikson,RU,73.51,80.55,1587869466,18.3,100,12.8,96
carnarvon,AU,-24.87,113.63,1587869533,82.44,83,11.3,47
kulebaki,RU,55.41,42.53,1587869533,40.48,100,4.25,92
agadir,MA,30.42,-9.6,1587869533,59.0,20,5.82,77
bengkulu,ID,-3.8,102.27,1587869533,85.37,95,0.72,66
atuona,PF,-9.8,-139.03,1587869533,82.35,27,17.0,79
mackay,AU,-21.15,149.2,1587869534,84.0,4,16.11,61
makakilo city,US,21.35,-158.09,1587869448,84.2,1,4.7,45
kaya,BF,13.09,-1.08,1587869534,90.55,45,3.74,20
berlevag,NO,70.86,29.09,1587868954,32.59,100,24.72,94
mount gambier,AU,-37.83,140.77,1587869508,60.8,50,19.46,59
barreirinhas,BR,-2.75,-42.83,1587869534,78.71,100,2.82,81
hamilton,US,39.18,-84.53,1587869534,55.99,90,4.09,100
juneau,US,58.3,-134.42,1587869534,46.4,90,5.82,87
salalah,OM,17.02,54.09,1587869310,80.44,2,4.79,73
mozarlandia,BR,-14.74,-50.57,1587869535,73.58,0,3.89,77
thompson,CA,55.74,-97.86,1587869535,46.4,20,6.93,42
abu dhabi,AE,24.47,54.37,1587869526,84.99,0,2.24,23
aksu,CN,41.12,80.26,1587869535,69.53,77,4.85,18
georgetown,MY,5.41,100.34,1587869535,86.0,20,4.7,88
minbu,MM,20.18,94.88,1587869535,86.09,84,2.8,48
sao joao da barra,BR,-21.64,-41.05,1587869536,72.93,0,7.29,82
bogorodskoye,RU,56.55,37.88,1587869536,31.05,11,3.15,90
peleduy,RU,59.63,112.74,1587869536,53.38,95,10.92,64
saint george,US,37.1,-113.58,1587868772,82.4,1,3.67,17
coquimbo,CL,-29.95,-71.34,1587869536,59.0,15,4.7,87
avarua,CK,-21.21,-159.78,1587869465,82.4,62,4.7,69
asau,RO,46.43,26.4,1587869536,42.01,15,4.74,67
brae,GB,60.4,-1.35,1587869536,42.8,100,9.17,87
airai,TL,-8.93,125.41,1587869537,72.45,34,4.14,44
barcelos,PT,41.54,-8.62,1587869537,51.8,40,6.93,93
ballina,AU,-28.87,153.57,1587869537,82.0,0,11.41,50
faanui,PF,-16.48,-151.75,1587869528,82.6,1,6.78,70
sinnamary,GF,5.38,-52.95,1587869537,78.94,100,13.04,86
kathmandu,NP,27.72,85.32,1587868673,60.8,75,4.7,93
necochea,AR,-38.55,-58.74,1587869537,55.99,0,8.01,82
pennathur,IN,12.25,79.23,1587869538,88.61,93,9.42,57
adrar,MR,20.5,-10.07,1587869487,75.13,0,8.63,17
tevaitoa,PF,-16.78,-151.5,1587869538,83.57,0,6.17,68
akyab,MM,20.15,92.9,1587869538,85.96,11,7.61,61
tucumcari,US,35.17,-103.72,1587869538,64.4,1,8.05,27
ust-tsilma,RU,65.44,52.15,1587869540,30.49,100,6.87,94
oistins,BB,13.07,-59.53,1587869540,80.6,75,21.92,69
filingue,NE,14.35,3.32,1587869540,88.72,4,2.55,24
karad,IN,17.28,74.2,1587869541,85.69,19,3.62,23
anadyr,RU,64.75,177.48,1587869541,19.4,90,13.42,85
jahazpur,IN,25.62,75.28,1587869541,87.94,0,4.68,24
walvis bay,NA,-22.96,14.51,1587868945,55.99,57,1.12,100
upernavik,GL,72.79,-56.15,1587869481,31.51,97,9.4,92
cayenne,GF,4.93,-52.33,1587869542,77.0,100,3.36,100
saint-philippe,RE,-21.36,55.77,1587869542,73.4,0,4.7,78
east london,ZA,-33.02,27.91,1587869542,64.31,99,13.38,79
bassano,CA,50.78,-112.47,1587869542,57.0,84,7.0,44
naze,JP,28.37,129.48,1587869542,68.0,75,2.24,60
biak,ID,-0.91,122.88,1587869542,78.01,100,18.48,81
lebu,CL,-37.62,-73.65,1587869542,54.79,36,8.55,92
ilulissat,GL,69.22,-51.1,1587869506,44.6,63,21.92,36
aklavik,CA,68.22,-135.01,1587869543,14.0,5,8.05,43
henties bay,NA,-22.12,14.28,1587869543,55.99,34,6.08,96
martil,MA,35.62,-5.28,1587869543,59.0,30,9.17,77
kruisfontein,ZA,-34.0,24.73,1587869543,57.38,12,11.16,84
verkhoyansk,RU,67.54,133.38,1587869543,35.01,46,8.5,81
yenagoa,NG,4.92,6.26,1587869543,74.91,100,6.51,93
ahipara,NZ,-35.17,173.17,1587869544,65.61,30,5.93,71
great falls,US,47.5,-111.3,1587869544,60.8,75,10.29,30
coihueco,CL,-36.62,-71.83,1587869544,51.8,0,4.7,100
paralimni,CY,35.04,33.98,1587869544,55.4,0,2.24,93
kawalu,ID,-7.38,108.21,1587869544,86.49,47,4.16,54
norman wells,CA,65.28,-126.83,1587869487,15.8,5,3.36,43
sobolevo,RU,54.43,31.9,1587869545,33.66,45,5.12,82
mareeba,AU,-17.0,145.43,1587869545,82.99,45,5.99,73
wanning,CN,18.8,110.4,1587869545,77.25,60,10.31,74
atar,MR,20.52,-13.05,1587869545,70.2,0,7.43,22
linhares,BR,-19.39,-40.07,1587869457,69.21,9,4.34,91
cidreira,BR,-30.18,-50.21,1587869489,70.47,90,7.36,73
saint anthony,US,45.02,-93.22,1587869547,62.6,90,4.7,33
geraldton,AU,-28.77,114.6,1587869547,78.8,53,12.75,36
bowling green,US,36.99,-86.44,1587869547,57.2,90,9.17,100
amursk,RU,50.23,136.9,1587869548,43.05,88,11.07,61
piacabucu,BR,-10.41,-36.43,1587869548,77.18,2,6.35,86
aitape,PG,-3.14,142.35,1587869549,88.0,76,4.43,61
puri,IN,19.8,85.85,1587869549,84.2,20,5.82,83
arlit,NE,18.74,7.39,1587869550,87.98,9,9.51,10
narrabri,AU,-30.32,149.78,1587869550,78.8,63,14.99,36
mar del plata,AR,-38.0,-57.56,1587869290,57.99,20,14.99,76
virginia beach,US,36.85,-75.98,1587868982,54.0,90,6.93,93
maracas,BR,-13.44,-40.43,1587869551,63.21,62,2.95,78
san fernando,PH,15.03,120.69,1587869551,89.6,20,6.93,59
manaure,CO,11.78,-72.44,1587869551,80.65,41,18.37,74
lubaczow,PL,50.16,23.12,1587869551,41.0,86,7.29,72
antofagasta,CL,-23.65,-70.4,1587869552,60.8,40,9.17,93
wittlich,DE,49.98,6.88,1587869552,44.6,1,3.36,75
boyolangu,ID,-8.12,111.89,1587869552,86.14,72,7.0,64
tamandare,BR,-8.76,-35.1,1587869552,78.87,5,6.98,82
pingliang,CN,35.54,106.69,1587869552,69.57,0,11.36,11
kunming,CN,25.04,102.72,1587869496,57.0,40,4.47,75
mahebourg,MU,-20.41,57.7,1587869552,71.6,20,4.7,100
burgeo,CA,47.62,-57.62,1587869553,32.0,0,19.57,94
damara,CF,4.96,18.7,1587869553,75.2,20,3.36,78
ribeira grande,PT,38.52,-28.7,1587869482,56.41,91,17.45,72
cuauhtemoc,MX,28.42,-106.87,1587869553,66.87,9,4.59,12
hwange,ZW,-18.37,26.5,1587869553,62.11,0,1.1,55
clinton,US,42.59,-82.92,1587869448,50.0,75,11.41,37
avera,US,33.19,-82.53,1587869553,71.6,1,8.05,60
sao felix do xingu,BR,-6.64,-51.99,1587869553,72.07,14,1.7,90
arcata,US,40.87,-124.08,1587869553,57.99,20,4.34,93
malartic,CA,48.13,-78.13,1587869554,37.4,75,3.36,40
santarem,BR,-2.44,-54.71,1587869554,77.0,40,1.12,94
saldanha,ZA,-33.01,17.94,1587869554,59.0,0,3.36,72
ialibu,PG,-6.28,143.99,1587869554,75.2,40,4.7,69
iqaluit,CA,63.75,-68.51,1587869554,23.0,40,2.24,85
batagay,RU,67.63,134.63,1587869554,35.42,29,7.99,77
tupiza,BO,-21.45,-65.72,1587869554,57.61,0,4.16,21
bozeman,US,45.68,-111.04,1587869555,59.0,1,3.36,28
phonhong,LA,18.5,102.42,1587869555,82.4,40,2.24,65
nuuk,GL,64.18,-51.72,1587869555,33.8,99,5.82,74
san carlos de bariloche,AR,-41.15,-71.31,1587869555,52.0,75,4.7,87
eyl,SO,7.98,49.82,1587869555,82.98,100,6.58,75
coihaique,CL,-45.58,-72.07,1587869555,42.8,90,2.35,87
bouake,CI,7.69,-5.02,1587869556,73.24,100,4.21,82
maryville,US,35.76,-83.97,1587869556,60.8,90,19.46,77
shaping,CN,22.75,112.96,1587869556,73.99,97,1.01,77
flinders,AU,-34.58,150.86,1587869556,75.99,100,11.99,52
belyy yar,RU,53.6,91.39,1587869556,51.8,100,13.42,62
sur,OM,22.57,59.53,1587869556,85.96,9,7.78,49
guadalupe y calvo,MX,26.1,-106.97,1587869557,56.95,1,1.52,23
yaan,NG,7.38,8.57,1587869557,76.01,100,12.68,86
korla,CN,41.76,86.15,1587869380,72.5,0,2.73,13
cabo san lucas,MX,22.89,-109.91,1587869557,84.2,5,10.29,25
cordoba,AR,-31.41,-64.18,1587869397,63.0,90,5.82,88
chuy,UY,-33.7,-53.46,1587869557,64.67,100,13.11,90
port augusta,AU,-32.5,137.77,1587869557,68.0,40,17.22,77
mezen,RU,65.85,44.24,1587869557,27.72,100,9.57,98
caiaponia,BR,-16.96,-51.81,1587869524,67.75,9,3.87,76
mehamn,NO,71.04,27.85,1587869558,31.71,100,22.06,94
kuching,MY,1.55,110.33,1587869558,86.0,20,3.36,79
mamaku,NZ,-38.1,176.08,1587869558,70.0,12,1.99,66
hambantota,LK,6.12,81.12,1587869558,83.55,14,2.95,75
slonim,BY,53.09,25.32,1587869558,32.41,3,6.31,83
kununurra,AU,-15.77,128.73,1587869558,98.6,0,11.41,17
boralday,KZ,43.36,76.86,1587869558,60.8,75,6.71,72
ca mau,VN,9.18,105.15,1587869443,92.05,67,14.79,51
asenovgrad,BG,42.02,24.87,1587869559,46.4,54,2.24,75
kodiak,US,57.79,-152.41,1587869559,46.4,90,6.93,65
solnechnyy,RU,50.72,136.63,1587869559,39.2,92,7.4,63
buraydah,SA,26.33,43.98,1587869535,77.0,0,6.93,38
gat,IL,31.61,34.76,1587869559,57.99,49,9.93,77
quatre cocos,MU,-20.21,57.76,1587869559,75.0,20,4.7,100
isla vista,US,34.41,-119.86,1587869391,77.0,1,3.36,64
dunmore town,BS,25.5,-76.65,1587869560,79.84,92,12.95,84
nakhon phanom,TH,17.41,104.78,1587869560,80.6,2,4.7,61
hasaki,JP,35.73,140.83,1587869560,73.0,75,18.34,35
kudinovo,RU,55.0,36.25,1587869560,35.6,29,4.47,93
tebingtinggi,ID,3.33,99.16,1587869560,80.6,40,4.7,88
te anau,NZ,-45.42,167.72,1587869560,53.96,100,9.24,58
provideniya,RU,64.38,-173.3,1587869538,31.84,0,1.3,88
ozernovskiy,RU,51.5,156.52,1587869561,31.53,99,4.16,94
bonavista,CA,48.65,-53.11,1587869561,33.01,86,8.01,87
road town,VG,18.42,-64.62,1587869400,80.6,1,10.29,69
ornskoldsvik,SE,63.29,18.72,1587869561,33.8,16,8.05,64
mildura,AU,-34.2,142.15,1587869561,69.01,75,12.75,68
nanning,CN,22.82,108.32,1587869561,69.8,40,11.18,68
cap malheureux,MU,-19.98,57.61,1587869562,75.0,0,1.01,92
funadhoo,MV,6.15,73.27,1587869562,85.33,54,6.17,72
natal,BR,-5.79,-35.21,1587869562,77.0,40,9.17,94
balkhash,KZ,46.84,74.98,1587869562,54.25,94,16.06,62
hay river,CA,60.82,-115.8,1587869562,17.6,90,6.93,78
samarai,PG,-10.62,150.67,1587869562,85.77,33,4.7,66
nioro,GM,13.35,-15.75,1587869563,79.27,91,5.1,29
tevriz,RU,57.51,72.4,1587869563,50.94,82,13.58,52
huanren,CN,41.26,125.37,1587869563,54.68,38,6.53,34
pangai,TO,-19.8,-174.35,1587869564,80.4,46,4.99,74
ternate,ID,0.8,127.4,1587869564,87.78,89,2.19,61
port hardy,CA,50.7,-127.42,1587869521,50.0,75,6.93,76
bethel,US,41.37,-73.41,1587869453,48.99,75,6.93,39
duldurga,RU,50.68,113.59,1587869565,57.18,0,3.22,23
teacapan,MX,22.55,-105.75,1587869565,71.78,73,3.94,70
alice springs,AU,-23.7,133.88,1587869565,87.8,0,6.93,12
deputatskiy,RU,69.3,139.9,1587869492,26.92,64,5.68,86
bembereke,BJ,10.23,2.66,1587869565,80.82,100,9.15,56
lewistown,US,40.6,-77.57,1587869565,55.0,100,4.0,70
karratha,AU,-20.74,116.85,1587869565,91.45,7,20.87,39
jumla,NP,29.27,82.18,1587869566,57.29,84,1.57,26
ust-kuyga,RU,70.02,135.6,1587869566,33.73,89,20.49,88
poum,NC,-20.23,164.02,1587869566,76.62,62,15.43,68
broome,US,42.25,-75.83,1587869566,53.6,90,8.05,62
petropavlovka,RU,50.61,105.32,1587869566,69.98,67,0.69,30
kuldiga,LV,56.97,21.96,1587869566,42.8,75,8.05,75
santa vitoria do palmar,BR,-33.52,-53.37,1587869567,64.81,100,14.56,91
sorong,ID,-0.88,131.25,1587869567,86.4,54,4.97,73
severo-kurilsk,RU,50.68,156.12,1587869567,33.85,34,6.53,87
katangli,RU,51.71,143.23,1587869567,31.66,100,10.0,98
hohr-grenzhausen,DE,50.43,7.67,1587869567,42.01,0,2.06,89
bay roberts,CA,47.6,-53.26,1587869567,37.0,74,8.01,74
awbari,LY,26.59,12.78,1587869568,77.32,8,13.6,21
pevek,RU,69.7,170.31,1587869568,21.27,99,5.93,95
waraseoni,IN,21.75,80.03,1587869568,90.12,0,7.78,20
frankfort,ZA,-27.27,28.48,1587869568,50.79,1,6.44,49
sao filipe,CV,14.9,-24.5,1587869568,71.69,36,11.23,77
jackson,US,42.42,-122.83,1587869493,68.0,75,12.75,52
boa vista,BR,2.82,-60.67,1587869569,82.4,75,2.24,65
mahibadhoo,MV,3.78,72.97,1587869569,85.01,15,7.78,71
saskylakh,RU,71.92,114.08,1587869480,33.57,100,9.35,96
hammerfest,NO,70.66,23.68,1587869569,32.0,100,11.41,96
caloundra,AU,-26.8,153.13,1587869543,81.0,7,4.0,63
marsh harbour,BS,26.54,-77.06,1587869283,80.02,100,10.96,79
husavik,IS,66.04,-17.34,1587869570,32.0,100,9.17,89
basoko,CD,1.24,23.62,1587869573,71.69,65,0.83,85
doha,QA,25.29,51.53,1587869573,88.0,2,2.24,35
nizhniy kuranakh,RU,58.84,125.49,1587869574,44.96,0,6.08,51
yangambi,CD,0.81,24.43,1587869574,70.99,51,2.33,83
yakeshi,CN,49.28,120.73,1587869574,48.2,0,10.45,34
erzin,TR,36.96,36.2,1587869574,54.0,3,11.01,91
zvishavane,ZW,-20.33,30.07,1587869575,57.45,0,1.95,50
san andres,CO,12.58,-81.7,1587869339,82.4,40,6.93,83
kapustin yar,RU,48.58,45.74,1587869575,46.78,0,6.6,68
swift current,CA,50.28,-107.8,1587869575,55.4,75,12.75,32
havelock,US,34.88,-76.9,1587869576,62.6,90,8.05,82
hoa binh,VN,20.81,105.34,1587869576,68.0,75,4.7,82
pahrump,US,36.21,-115.98,1587869576,82.0,21,1.01,19
ormara,PK,25.21,64.64,1587869576,83.7,0,9.42,59
bay saint louis,US,30.31,-89.33,1587869576,75.2,1,10.29,47
harper,LR,4.38,-7.72,1587869576,80.33,93,7.74,86
los llanos de aridane,ES,28.66,-17.92,1587869577,60.8,90,6.93,72
fortuna,US,40.6,-124.16,1587869577,57.99,90,6.93,100
khash,IR,28.22,61.22,1587869577,75.63,0,1.72,15
inuvik,CA,68.35,-133.72,1587869527,14.0,5,8.05,43
querfurt,DE,51.38,11.6,1587869577,41.0,77,1.01,81
kvam,NO,61.67,9.69,1587869577,29.93,54,2.98,85
makat,KZ,47.65,53.35,1587869578,52.79,100,13.98,44
meulaboh,ID,4.14,96.13,1587869461,82.44,96,1.39,77
mpulungu,ZM,-8.76,31.11,1587869578,71.11,34,5.61,60
leningradskiy,RU,69.38,178.42,1587869578,25.05,92,13.6,94
dedza,MW,-14.38,34.33,1587869578,56.05,59,2.93,64
yeppoon,AU,-23.13,150.73,1587869578,82.4,40,10.29,51
padang,ID,-0.95,100.35,1587869578,79.29,100,3.4,75
emerald,AU,-23.53,148.17,1587869578,82.99,0,5.82,37
poso,ID,-1.4,120.75,1587869579,80.04,100,3.8,72
soyo,AO,-6.13,12.37,1587869579,78.08,100,5.12,87
sept-iles,CA,50.2,-66.38,1587869579,37.0,5,5.82,43
puksoozero,RU,62.59,40.61,1587869579,27.75,100,8.84,97
contai,IN,21.78,87.75,1587869580,84.18,18,8.72,64
erenhot,CN,43.65,111.98,1587869580,53.91,3,8.41,23
yagodnoye,RU,62.55,149.67,1587869580,28.92,78,1.83,81
ancud,CL,-41.87,-73.82,1587869580,55.0,75,8.05,100
zhumadian,CN,32.98,114.03,1587869580,71.92,0,7.76,39
batos,RO,46.88,24.67,1587869580,37.4,36,5.82,86
batticaloa,LK,7.71,81.69,1587869580,85.5,80,5.26,71
mwinilunga,ZM,-11.74,24.43,1587869581,58.32,3,3.91,64
wasilla,US,61.58,-149.44,1587869555,51.8,1,17.22,31
martapura,ID,-3.42,114.85,1587869581,84.2,40,11.41,79
pacific grove,US,36.62,-121.92,1587869317,64.4,1,6.93,63
fiumicino,IT,41.77,12.23,1587869286,54.0,75,4.7,100
daru,PG,-9.08,143.21,1587869581,84.83,85,11.01,74
balclutha,NZ,-46.23,169.75,1587869404,58.69,85,4.97,47
korem,ET,12.51,39.52,1587869581,58.08,24,2.77,39
puerto penasco,MX,31.32,-113.53,1587869582,77.0,0,5.01,66
bumiayu,ID,-8.02,112.63,1587869582,86.18,75,3.85,45
bom jesus,BR,-9.07,-44.36,1587869582,71.29,0,2.33,82
ugoofaaru,MV,5.67,73.0,1587869582,85.3,25,6.53,71
alta floresta,BR,-9.88,-56.09,1587869582,72.09,81,3.56,90
waingapu,ID,-9.66,120.26,1587869582,85.78,87,12.62,64
buala,SB,-8.14,159.59,1587869582,86.45,80,7.14,68
key west,US,24.56,-81.78,1587869583,84.0,75,6.93,88
ixtapa,MX,20.7,-105.2,1587869583,75.2,5,6.93,78
aktau,KZ,43.65,51.2,1587869583,53.6,90,11.18,87
kamien pomorski,PL,53.97,14.77,1587869583,39.99,0,1.12,93
evanston,US,42.04,-87.69,1587869583,44.6,90,9.17,75
clyde river,CA,70.47,-68.59,1587869583,14.0,90,5.82,85
suluq,LY,31.67,20.25,1587869583,60.8,59,9.01,68
hualmay,PE,-11.1,-77.61,1587869584,68.63,7,5.64,79
izvestkovyy,RU,48.98,131.55,1587869584,44.85,100,2.66,55
mitsamiouli,KM,-11.38,43.28,1587869584,82.69,3,11.48,76
busayra,JO,30.74,35.61,1587869584,46.29,38,5.23,68
bella union,UY,-30.28,-57.6,1587869344,72.52,64,14.32,73
yulara,AU,-25.24,130.99,1587869584,82.4,72,12.75,32
ossora,RU,59.24,163.07,1587869584,29.71,95,8.12,96
sangmelima,CM,2.93,11.98,1587869585,67.6,65,2.68,81
westport,US,41.14,-73.36,1587869397,50.0,1,3.36,53
patti,IN,31.28,74.86,1587869585,75.2,75,6.93,78
haines junction,CA,60.75,-137.51,1587869519,33.03,100,5.01,67
haldwani,IN,29.22,79.52,1587869410,81.52,75,10.56,38
bathsheba,BB,13.22,-59.52,1587869585,80.6,75,21.92,69
mehran,IR,33.12,46.16,1587869585,59.0,75,2.24,51
yashkino,RU,55.87,85.43,1587869586,48.2,3,6.71,45
botngard,NO,63.77,9.81,1587869586,39.2,75,3.36,86
zeya,RU,53.75,127.27,1587869586,51.3,0,6.55,38
angoche,MZ,-16.23,39.91,1587869586,72.14,0,6.71,81
talakan,RU,50.32,130.37,1587869586,51.15,95,2.73,39
binzhou,CN,37.37,118.02,1587869586,66.99,99,3.0,28
lorengau,PG,-2.02,147.27,1587869586,85.78,25,2.15,68
ferkessedougou,CI,9.6,-5.2,1587869587,79.84,100,5.64,55
san jeronimo,PE,-11.95,-75.28,1587869587,50.18,98,2.13,29
haag,NL,52.08,4.3,1587869587,43.0,0,1.12,93
santa,PH,17.49,120.43,1587869538,92.12,0,9.04,51
santo angelo,BR,-28.3,-54.26,1587869587,77.0,68,5.82,61
conceicao do araguaia,BR,-8.26,-49.26,1587869587,73.74,68,1.72,90
nouakchott,MR,18.09,-15.98,1587869580,69.8,40,18.34,77
todos santos,MX,23.45,-110.22,1587869587,69.01,37,4.0,73
holme,DK,56.11,10.17,1587869588,37.99,54,7.81,93
komsomolskiy,UZ,40.43,71.72,1587869588,66.2,60,2.24,59
saint-joseph,RE,-21.37,55.62,1587869588,73.4,0,4.7,78
illapel,CL,-31.63,-71.17,1587869588,54.07,23,0.45,61
banda aceh,ID,5.56,95.32,1587869588,85.86,96,1.32,67
trincomalee,LK,8.57,81.23,1587869589,85.33,90,6.4,73
englewood,US,39.65,-104.99,1587869393,60.01,75,3.36,22
belmonte,BR,-15.86,-38.88,1587869589,75.2,75,5.82,88
koundara,GN,12.48,-13.3,1587869589,79.11,32,2.08,46
snezhnogorsk,RU,69.19,33.25,1587869589,30.2,75,6.71,92
kristinehamn,SE,59.31,14.11,1587869589,41.0,89,4.7,80
sibolga,ID,1.74,98.78,1587869589,80.91,100,0.43,75
turukhansk,RU,65.82,87.98,1587869589,32.88,0,12.88,88
taybad,IR,34.74,60.78,1587869590,71.37,0,1.12,34
hatillo,PR,18.49,-66.83,1587869590,80.01,10,1.99,78
vanimo,PG,-2.67,141.3,1587869471,88.29,75,5.84,59
fairbanks,US,64.84,-147.72,1587869477,39.2,1,6.93,23
nhulunbuy,AU,-12.23,136.77,1587869590,89.6,75,12.75,55
benjamin hill,MX,30.17,-111.1,1587869590,81.0,0,10.09,36
bonthe,SL,7.53,-12.51,1587869590,79.9,81,5.57,84
nanga eboko,CM,4.68,12.37,1587869590,71.56,64,5.79,77
tahe,CN,52.33,124.73,1587869590,50.31,8,7.27,36
sumenep,ID,-7.02,113.87,1587869591,83.91,79,4.79,72
tianpeng,CN,30.99,103.94,1587869591,75.99,100,3.58,1
portland,US,45.52,-122.68,1587869052,62.01,75,6.93,51
dolores,AR,-36.31,-57.68,1587869591,53.71,85,7.7,94
axim,GH,4.87,-2.24,1587869523,80.64,98,8.03,84
richards bay,ZA,-28.78,32.04,1587869591,68.94,93,9.42,82
rawson,AR,-43.3,-65.1,1587869591,52.5,28,12.48,80
aykhal,RU,66.0,111.5,1587869592,35.6,40,20.13,64
crotone,IT,39.09,17.12,1587869592,56.23,100,3.47,59
rumonge,BI,-3.97,29.44,1587869592,68.23,76,2.19,61
portneuf,CA,46.69,-71.89,1587869592,39.2,1,2.71,68
bandon,IE,51.75,-8.74,1587869592,52.0,75,2.24,100
fort nelson,CA,58.81,-122.7,1587869592,24.8,90,9.17,92
darnah,LY,32.77,22.64,1587869593,59.58,43,3.09,77
ayan,RU,56.45,138.17,1587869593,34.38,50,4.65,83
tessalit,ML,20.2,1.01,1587869521,82.45,87,9.4,17
mae ramat,TH,16.98,98.52,1587869593,82.4,26,0.98,61
vao,NC,-22.67,167.48,1587869472,74.59,1,14.32,65
izumo,JP,35.37,132.77,1587869594,62.6,75,13.87,67
russell,US,32.35,-85.2,1587869526,75.2,1,9.17,60
lishu,CN,43.3,124.33,1587869594,53.11,20,11.52,37
koyelga,RU,54.65,60.9,1587869594,47.88,64,18.12,46
kadubivtsi,UA,48.58,25.77,1587869594,44.01,0,10.0,79
rincon,US,32.3,-81.24,1587869594,73.4,20,11.41,88
nebolchi,RU,59.12,33.35,1587869595,30.67,98,7.07,92
dauriya,RU,49.93,116.87,1587869596,52.88,24,7.29,28
gao,ML,16.64,1.64,1587869596,86.61,55,12.64,14
dandong,CN,40.13,124.39,1587869596,59.25,40,4.92,34
nadvoitsy,RU,63.87,34.32,1587869596,29.82,95,8.16,97
bella vista,US,36.43,-94.23,1587869596,60.8,40,5.82,51
hobyo,SO,5.35,48.53,1587869596,83.53,99,7.76,75
gimbi,ET,9.17,35.83,1587869596,60.19,42,1.7,32
duns,GB,55.78,-2.35,1587869597,43.0,0,9.35,89
shelburne,CA,44.08,-80.2,1587869597,44.01,1,6.76,41
kahului,US,20.89,-156.47,1587869597,80.6,40,24.16,57
nouadhibou,MR,20.93,-17.03,1587869576,64.4,0,19.46,72
kemijarvi,FI,66.71,27.43,1587869597,26.33,41,10.02,94
labrea,BR,-7.26,-64.8,1587869597,74.86,100,2.1,95
tocache,PE,-8.18,-76.51,1587869597,72.57,76,1.03,70
prado,BR,-17.34,-39.22,1587869597,76.08,46,14.92,85
pampa,US,35.54,-100.96,1587869597,53.6,1,9.17,58
mashhad,IR,36.3,59.61,1587869597,59.0,8,4.7,87
jardim,BR,-21.48,-56.14,1587869598,74.79,18,3.89,66
vaitape,PF,-16.52,-151.75,1587869598,83.44,1,6.64,70
port blair,IN,11.67,92.75,1587869598,85.32,97,8.25,74
lagoa,PT,39.05,-27.98,1587869598,56.43,100,18.57,70
mount isa,AU,-20.73,139.5,1587869598,89.6,0,8.05,25
laguna,US,38.42,-121.42,1587869598,82.0,1,9.17,42
labuhan,ID,-6.88,112.21,1587869598,83.16,100,8.46,76
klaksvik,FO,62.23,-6.59,1587869527,41.0,90,11.41,93
bayeux,BR,-7.12,-34.93,1587869599,77.0,75,3.36,94
lae,PG,-6.72,146.98,1587869599,89.6,40,3.36,59
matagami,CA,49.75,-77.63,1587869599,32.0,75,3.36,95
soria,ES,41.67,-2.67,1587869599,48.0,89,1.07,93
cimitarra,CO,6.31,-73.95,1587869599,75.04,81,2.1,80
savannah bight,HN,16.45,-85.85,1587869599,82.74,4,30.38,78
malmesbury,ZA,-33.46,18.73,1587869599,57.0,0,5.82,93
halvad,IN,23.02,71.18,1587869600,84.79,0,13.09,61
dawei,MM,14.08,98.2,1587869600,89.53,41,3.76,52
bozova,TR,37.36,38.53,1587869600,48.2,40,2.37,100
constitucion,CL,-35.33,-72.42,1587869530,56.28,0,4.34,80
nemuro,JP,43.32,145.57,1587869600,48.2,75,1.12,87
palmares,BR,-8.68,-35.59,1587869600,72.61,16,3.87,90
katobu,ID,-4.94,122.53,1587869600,87.28,100,4.47,61
susehri,TR,40.16,38.09,1587869600,40.91,3,1.83,35
broken hill,AU,-31.95,141.43,1587869472,62.6,90,9.17,82
santa marta,CO,11.24,-74.2,1587869601,81.36,71,18.43,72
la rioja,ES,42.25,-2.5,1587869601,55.4,96,1.12,100
nalut,LY,30.33,10.85,1587869601,72.84,19,11.36,32
xinqing,CN,48.23,129.5,1587869601,46.98,97,6.91,46
tilichiki,RU,60.47,166.1,1587869601,26.37,72,5.28,95
mandalay,MM,21.97,96.08,1587869601,82.4,40,2.24,74
qinhuangdao,CN,39.93,119.59,1587869601,60.87,5,4.97,31
beyneu,KZ,45.32,55.2,1587869601,54.55,100,18.68,65
lompoc,US,34.64,-120.46,1587869458,70.0,1,8.05,63
marawi,PH,8.0,124.29,1587869602,82.99,95,8.99,81
petro-slavyanka,RU,59.8,30.51,1587869602,32.0,99,4.47,94
eagle pass,US,28.71,-100.5,1587869378,75.2,1,5.82,29
verkhniy naur,RU,43.61,45.24,1587869602,44.6,90,4.47,100
rupert,US,42.62,-113.68,1587869602,62.6,1,1.25,42
san cristobal,VE,7.77,-72.22,1587869602,68.05,40,2.39,61
madanapalle,IN,13.55,78.5,1587869602,84.45,61,6.53,44
pital,CO,2.27,-75.8,1587869603,67.73,68,1.74,58
gueugnon,FR,46.6,4.06,1587869603,53.6,98,3.02,87
kichera,RU,55.94,110.1,1587869603,52.11,97,4.72,40
antsohihy,MG,-14.88,47.99,1587869603,74.17,20,2.21,92
luanda,AO,-8.84,13.23,1587869603,75.2,75,3.36,88
kuusankoski,FI,60.91,26.62,1587869603,33.8,0,6.93,59
mayo,US,38.89,-76.51,1587869603,53.01,90,12.75,81
tupi paulista,BR,-21.38,-51.57,1587869603,70.45,1,6.44,69
saint-augustin,CA,51.23,-58.65,1587869494,30.31,11,9.62,92
sompeta,IN,18.93,84.6,1587869604,86.43,46,12.24,67
krasnoarmeysk,RU,51.02,45.7,1587869604,48.99,17,3.0,56
camacupa,AO,-12.02,17.48,1587869604,58.55,34,2.75,54
hutang,CN,31.53,119.48,1587869604,68.0,10,6.71,52
pasni,PK,25.26,63.47,1587869604,84.54,0,8.37,54
matane,CA,48.83,-67.52,1587869604,27.0,0,10.85,59
santa maria,BR,-29.68,-53.81,1587869605,72.72,58,2.68,52
imbituba,BR,-28.24,-48.67,1587869464,73.4,68,10.29,88
jonesboro,US,35.84,-90.7,1587869435,57.99,1,10.29,71
nome,US,64.5,-165.41,1587869605,37.4,1,10.29,59
tadine,NC,-21.55,167.88,1587869605,76.3,85,13.09,60
arkhara,RU,49.42,130.08,1587869605,48.49,99,6.51,45
vilhena,BR,-12.74,-60.15,1587869605,70.57,44,3.65,83
udgir,IN,18.38,77.12,1587869606,86.79,21,7.83,18
kainantu,PG,-6.29,145.87,1587869606,74.93,72,1.52,47
mbini,GQ,1.57,9.61,1587869606,77.83,100,7.96,87
cajamarca,PE,-7.16,-78.5,1587869606,54.75,77,0.58,37
